[
  {
    "address_line1": "3820 NW BLITCHTON RD",
    "city": "OCALA",
    "state": "FL",
    "zip4": 6762,
    "lat": 29.206932667167415,
    "lon": -82.18678334480283
  },
  {
    "address_line1": "2248 APPALOOSA TRL",
    "city": "WELLINGTON",
    "state": "FL",
    "zip4": 7669,
    "lat": 26.640926639808143,
    "lon": -80.28260375866397
  },
  {
    "address_line1": "SCENIC HWY",
    "city": "DUNDEE",
    "state": "FL",
    "zip4": "",
    "lat": 28.011952009489804,
    "lon": -81.60269778091575
  },
  {
    "address_line1": "15167 331 BUSINESS",
    "city": "FREEPORT",
    "state": "FL",
    "zip4": 258,
    "lat": 30.51091500460464,
    "lon": -86.13005252853105
  },
  {
    "address_line1": "852 6TH ST NW",
    "city": "WINTER HAVEN",
    "state": "FL",
    "zip4": 4067,
    "lat": 28.030240936310804,
    "lon": -81.73248900850204
  },
  {
    "address_line1": "3071 SW PORT ST LUCIE BLVD",
    "city": "PORT SAINT LUCIE",
    "state": "FL",
    "zip4": 3226,
    "lat": 27.251411477953425,
    "lon": -80.37620458779325
  },
  {
    "address_line1": "HOWELL MARKET LN",
    "city": "WINTER PARK",
    "state": "FL",
    "zip4": "",
    "lat": 28.6085,
    "lon": -81.3021
  },
  {
    "address_line1": "3032 PARROT HEAD PL",
    "city": "KISSIMMEE",
    "state": "FL",
    "zip4": "",
    "lat": 28.3215,
    "lon": -81.5845
  },
  {
    "address_line1": "3365 9TH ST N",
    "city": "NAPLES",
    "state": "FL",
    "zip4": "",
    "lat": 26.187478997019063,
    "lon": -81.80048409536879
  },
  {
    "address_line1": "1419 SW GADSAN AVE",
    "city": "PORT SAINT LUCIE",
    "state": "FL",
    "zip4": 6559,
    "lat": 27.21638455782955,
    "lon": -80.39283528143439
  },
  {
    "address_line1": "5144 E BUSCH BLVD",
    "city": "TAMPA",
    "state": "FL",
    "zip4": 5306,
    "lat": 28.0332026265326,
    "lon": -82.39836949947043
  },
  {
    "address_line1": "1693 LEE RD",
    "city": "WINTER PARK",
    "state": "FL",
    "zip4": 2260,
    "lat": 28.606224797391754,
    "lon": -81.3713607940142
  },
  {
    "address_line1": "BARTIGON AVE",
    "city": "NORTH PORT",
    "state": "FL",
    "zip4": "",
    "lat": 27.099727294907943,
    "lon": -82.18348885352829
  },
  {
    "address_line1": "3110 39TH AVE N",
    "city": "ST PETERSBURG",
    "state": "FL",
    "zip4": 4530,
    "lat": 27.807244410822335,
    "lon": -82.67597890363558
  },
  {
    "address_line1": "12401 N 22ND ST",
    "city": "TAMPA",
    "state": "FL",
    "zip4": 4661,
    "lat": 28.061134154048858,
    "lon": -82.4342288500582
  },
  {
    "address_line1": "1064 N TAMIAMI TRL",
    "city": "NORTH FORT MYERS",
    "state": "FL",
    "zip4": 5306,
    "lat": 26.664489934814355,
    "lon": -81.87678865710606
  },
  {
    "address_line1": "1781 DUNLAWTON AVE",
    "city": "PORT ORANGE",
    "state": "FL",
    "zip4": 2909,
    "lat": 29.108150434634204,
    "lon": -81.02749650280113
  },
  {
    "address_line1": "8340 SKYE RANCH BLVD",
    "city": "SARASOTA",
    "state": "FL",
    "zip4": 3707,
    "lat": 27.2704,
    "lon": -82.3992
  },
  {
    "address_line1": "440 BAYSHORE DR",
    "city": "VENICE",
    "state": "FL",
    "zip4": 1411,
    "lat": 27.10801526796451,
    "lon": -82.45252730388385
  },
  {
    "address_line1": "1060 GREENWOOD BLVD",
    "city": "LAKE MARY",
    "state": "FL",
    "zip4": 5404,
    "lat": 28.748562981347483,
    "lon": -81.36431381381868
  },
  {
    "address_line1": "4481 FRANKIE CT",
    "city": "NORTH FORT MYERS",
    "state": "FL",
    "zip4": 4276,
    "lat": 26.651970410114515,
    "lon": -81.92282689001719
  },
  {
    "address_line1": "ANDERSON LN",
    "city": "MILTON",
    "state": "FL",
    "zip4": "",
    "lat": 30.6961,
    "lon": -87.0335
  },
  {
    "address_line1": "1100 SUNSET STRIP",
    "city": "SUNRISE",
    "state": "FL",
    "zip4": 6168,
    "lat": 26.137892872502192,
    "lon": -80.23114564373498
  },
  {
    "address_line1": "1040 KENNWOOD AVE",
    "city": "PORT CHARLOTTE",
    "state": "FL",
    "zip4": "",
    "lat": 26.99270868967855,
    "lon": -82.1325911489335
  },
  {
    "address_line1": "",
    "city": "PALM CITY",
    "state": "FL",
    "zip4": "",
    "lat": 27.162869467554415,
    "lon": -80.30120564698795
  },
  {
    "address_line1": "1136 ENBROOK LOOP",
    "city": "NAPLES",
    "state": "FL",
    "zip4": 9318,
    "lat": 26.044,
    "lon": -81.6966
  },
  {
    "address_line1": "190 LYMAN RD",
    "city": "CASSELBERRY",
    "state": "FL",
    "zip4": 2802,
    "lat": 28.67531753783642,
    "lon": -81.34888658045611
  },
  {
    "address_line1": "660 S TAMIAMI TRL",
    "city": "OSPREY",
    "state": "FL",
    "zip4": 9216,
    "lat": 27.18651315374173,
    "lon": -82.48655820023644
  },
  {
    "address_line1": "93 LAGUNA FOREST TRL",
    "city": "PALM COAST",
    "state": "FL",
    "zip4": "",
    "lat": 29.44832365634837,
    "lon": -81.205746358043
  },
  {
    "address_line1": "2290 CORAL SPRINGS DR",
    "city": "CORAL SPRINGS",
    "state": "FL",
    "zip4": 4234,
    "lat": 26.258554794810273,
    "lon": -80.2664326766069
  },
  {
    "address_line1": "6700 US HIGHWAY 19 N",
    "city": "PINELLAS PARK",
    "state": "FL",
    "zip4": 6242,
    "lat": 27.833281019324822,
    "lon": -82.68129672509113
  },
  {
    "address_line1": "1802 NE 13TH TER",
    "city": "CAPE CORAL",
    "state": "FL",
    "zip4": "",
    "lat": 26.67706439212597,
    "lon": -81.93761375049488
  },
  {
    "address_line1": "3813 SW ROSSER BLVD",
    "city": "PORT SAINT LUCIE",
    "state": "FL",
    "zip4": 7084,
    "lat": 27.231879083762728,
    "lon": -80.39939783630751
  },
  {
    "address_line1": "9580 SW HIGHWAY 200",
    "city": "OCALA",
    "state": "FL",
    "zip4": 7720,
    "lat": 29.057603513869232,
    "lon": -82.2785761397618
  },
  {
    "address_line1": "125 S CHARLESTON AVE",
    "city": "FORT MEADE",
    "state": "FL",
    "zip4": 3315,
    "lat": 27.749651701624316,
    "lon": -81.80108060801031
  },
  {
    "address_line1": "8863 PHILIPS HWY",
    "city": "JACKSONVILLE",
    "state": "FL",
    "zip4": 1301,
    "lat": 30.203815565597182,
    "lon": -81.5744100171555
  },
  {
    "address_line1": "15540 SW 80TH ST",
    "city": "MIAMI",
    "state": "FL",
    "zip4": 3373,
    "lat": 25.692262,
    "lon": -80.445984
  },
  {
    "address_line1": "2703 HINOKI CYPRESS PL",
    "city": "SANFORD",
    "state": "FL",
    "zip4": 6473,
    "lat": 28.7424,
    "lon": -81.283
  },
  {
    "address_line1": "1369 YORKDALE RD",
    "city": "HAINES CITY",
    "state": "FL",
    "zip4": "",
    "lat": 28.1,
    "lon": -81.6186
  },
  {
    "address_line1": "2 ROYAL PALM PT",
    "city": "VERO BEACH",
    "state": "FL",
    "zip4": "",
    "lat": 27.65020114988237,
    "lon": -80.37505907592707
  },
  {
    "address_line1": "19 NE 9TH ST",
    "city": "MIAMI",
    "state": "FL",
    "zip4": "",
    "lat": 25.783103207510365,
    "lon": -80.19346926479194
  },
  {
    "address_line1": "4215 9TH ST SW",
    "city": "VERO BEACH",
    "state": "FL",
    "zip4": 4806,
    "lat": 27.586812083365345,
    "lon": -80.43001919333378
  },
  {
    "address_line1": "1667 SUGARLOAF AVE SW",
    "city": "PALM BAY",
    "state": "FL",
    "zip4": "",
    "lat": 27.95567127252277,
    "lon": -80.6938950313407
  },
  {
    "address_line1": "338 ROOSEVELT ST",
    "city": "HOLLYWOOD",
    "state": "FL",
    "zip4": 3534,
    "lat": 26.02623622571,
    "lon": -80.1160148468681
  },
  {
    "address_line1": "11380 BLOOMINGDALE AVE",
    "city": "RIVERVIEW",
    "state": "FL",
    "zip4": 3707,
    "lat": 27.893751,
    "lon": -82.30901
  },
  {
    "address_line1": "4513 NW 31ST AVE",
    "city": "FORT LAUDERDALE",
    "state": "FL",
    "zip4": 3403,
    "lat": 26.18300830709913,
    "lon": -80.1880418354931
  },
  {
    "address_line1": "12525 AQUA RESERVE CT",
    "city": "FORT MYERS",
    "state": "FL",
    "zip4": 9661,
    "lat": 26.451562,
    "lon": -81.746569
  },
  {
    "address_line1": "",
    "city": "",
    "state": "FL",
    "zip4": "",
    "lat": 30.844256736795423,
    "lon": -87.16692921918991
  },
  {
    "address_line1": "NW 1ST AVE",
    "city": "GAINESVILLE",
    "state": "FL",
    "zip4": "",
    "lat": 29.653012420154546,
    "lon": -82.34351433222714
  },
  {
    "address_line1": "5906 BRECKENRIDGE PKWY",
    "city": "TAMPA",
    "state": "FL",
    "zip4": 4241,
    "lat": 28.00069774863242,
    "lon": -82.3599666256071
  },
  {
    "address_line1": "1442 NE MIAMI CT",
    "city": "MIAMI",
    "state": "FL",
    "zip4": 1326,
    "lat": 25.789084592565274,
    "lon": -80.19416423383504
  },
  {
    "address_line1": "1620 GULF OF MEXICO DR",
    "city": "LONGBOAT KEY",
    "state": "FL",
    "zip4": 3403,
    "lat": 27.351786257625704,
    "lon": -82.61115440992236
  },
  {
    "address_line1": "5400 W ATLANTIC BLVD",
    "city": "MARGATE",
    "state": "FL",
    "zip4": 5209,
    "lat": 26.234947068271374,
    "lon": -80.20015365180865
  },
  {
    "address_line1": "",
    "city": "MIAMI",
    "state": "FL",
    "zip4": "",
    "lat": 25.92192500694351,
    "lon": -80.20509109615983
  },
  {
    "address_line1": "1540 FLANDERS RD",
    "city": "JACKSONVILLE",
    "state": "FL",
    "zip4": "",
    "lat": 30.266416466268417,
    "lon": -81.645834498281
  },
  {
    "address_line1": "1225 N COMBEE RD",
    "city": "LAKELAND",
    "state": "FL",
    "zip4": 2974,
    "lat": 28.059731990619127,
    "lon": -81.9074651370247
  },
  {
    "address_line1": "19 BRAMBLE GROVE PL",
    "city": "SANTA ROSA BEACH",
    "state": "FL",
    "zip4": 6470,
    "lat": 30.314117033759054,
    "lon": -86.11863309203221
  },
  {
    "address_line1": "3773 OLD BERRY PT E",
    "city": "FORT MYERS",
    "state": "FL",
    "zip4": 9539,
    "lat": 26.608395009733734,
    "lon": -81.84089326430674
  },
  {
    "address_line1": "2600 NW 21ST TER",
    "city": "MIAMI",
    "state": "FL",
    "zip4": 7113,
    "lat": 25.83889215087001,
    "lon": -80.24080317336714
  },
  {
    "address_line1": "4702 MILLENIA PLAZA WAY",
    "city": "ORLANDO",
    "state": "FL",
    "zip4": 2401,
    "lat": 28.49355624947669,
    "lon": -81.42855670728314
  },
  {
    "address_line1": "7181 S US HIGHWAY 1",
    "city": "PORT SAINT LUCIE",
    "state": "FL",
    "zip4": 1431,
    "lat": 27.334521874037947,
    "lon": -80.32586877425274
  },
  {
    "address_line1": "513 MARSEILLES CT",
    "city": "PUNTA GORDA",
    "state": "FL",
    "zip4": 8030,
    "lat": 26.887064202660852,
    "lon": -82.03823345681685
  },
  {
    "address_line1": "1251 NW 3RD ST",
    "city": "MIAMI",
    "state": "FL",
    "zip4": 5693,
    "lat": 25.776661385724935,
    "lon": -80.21584461732161
  },
  {
    "address_line1": "1ST",
    "city": "PLANT CITY",
    "state": "FL",
    "zip4": "",
    "lat": 28.031205165339472,
    "lon": -82.11874716665734
  },
  {
    "address_line1": "5910 N W ST",
    "city": "PENSACOLA",
    "state": "FL",
    "zip4": 2227,
    "lat": 30.473014841664707,
    "lon": -87.25413795493357
  },
  {
    "address_line1": "9104 ISABELLA CIR",
    "city": "PARRISH",
    "state": "FL",
    "zip4": 3244,
    "lat": 27.5424,
    "lon": -82.4708
  },
  {
    "address_line1": "7101 54TH AVE N",
    "city": "ST PETERSBURG",
    "state": "FL",
    "zip4": 2660,
    "lat": 27.82137614186434,
    "lon": -82.73722072460093
  },
  {
    "address_line1": "E FOWLER AVE",
    "city": "TAMPA",
    "state": "FL",
    "zip4": "",
    "lat": 28.05424262455169,
    "lon": -82.45257319564536
  },
  {
    "address_line1": "1620 GULF OF MEXICO DR",
    "city": "LONGBOAT KEY",
    "state": "FL",
    "zip4": 3403,
    "lat": 27.351786257625704,
    "lon": -82.61115440992236
  },
  {
    "address_line1": "SEARS RD",
    "city": "LABELLE",
    "state": "FL",
    "zip4": "",
    "lat": 26.671497898863755,
    "lon": -81.31229002074122
  },
  {
    "address_line1": "2634 CYPRESS RIDGE BLVD",
    "city": "WESLEY CHAPEL",
    "state": "FL",
    "zip4": 6317,
    "lat": 28.193284156006825,
    "lon": -82.37802464460152
  },
  {
    "address_line1": "2880 N ORANGE BLOSSOM TRL",
    "city": "KISSIMMEE",
    "state": "FL",
    "zip4": 1132,
    "lat": 28.33259736873744,
    "lon": -81.40487375757475
  },
  {
    "address_line1": "6367 TOWER LN",
    "city": "SARASOTA",
    "state": "FL",
    "zip4": "",
    "lat": 27.330226531270654,
    "lon": -82.44356364687138
  },
  {
    "address_line1": "3625 NEW JERSEY RD",
    "city": "LAKELAND",
    "state": "FL",
    "zip4": 7500,
    "lat": 27.997476315584862,
    "lon": -81.93515682620819
  },
  {
    "address_line1": "702 PINELLAS ST",
    "city": "CLEARWATER",
    "state": "FL",
    "zip4": 3427,
    "lat": 27.952243751599966,
    "lon": -82.79697413750525
  },
  {
    "address_line1": "4600 TRI PAR DR",
    "city": "SARASOTA",
    "state": "FL",
    "zip4": 4103,
    "lat": 27.376522179367804,
    "lon": -82.5319301914724
  },
  {
    "address_line1": "1302 N PARSONS AVE",
    "city": "BRANDON",
    "state": "FL",
    "zip4": 2432,
    "lat": 27.959889184837387,
    "lon": -82.28628352978599
  },
  {
    "address_line1": "18710 SW 107TH AVE",
    "city": "CUTLER BAY",
    "state": "FL",
    "zip4": 6750,
    "lat": 25.593148952519897,
    "lon": -80.3475939331427
  },
  {
    "address_line1": "13078 FLAMINGO TER",
    "city": "WEST PALM BEACH",
    "state": "FL",
    "zip4": 1309,
    "lat": 26.86826737256277,
    "lon": -80.0669899541801
  },
  {
    "address_line1": "11600 N KENDALL DR",
    "city": "MIAMI",
    "state": "FL",
    "zip4": 1005,
    "lat": 25.685645504441396,
    "lon": -80.38403526763828
  },
  {
    "address_line1": "5636 PEACE RIVER DR",
    "city": "LAKELAND",
    "state": "FL",
    "zip4": 1980,
    "lat": 27.9586,
    "lon": -82.016
  },
  {
    "address_line1": "260 SPOONBILL DR",
    "city": "POINCIANA",
    "state": "FL",
    "zip4": "",
    "lat": 28.09239575112514,
    "lon": -81.47669330518612
  },
  {
    "address_line1": "43 BARKLEY CIR",
    "city": "FORT MYERS",
    "state": "FL",
    "zip4": 7517,
    "lat": 26.587935310332192,
    "lon": -81.88165420870006
  },
  {
    "address_line1": "2100 SW 59TH TER",
    "city": "WEST PARK",
    "state": "FL",
    "zip4": "",
    "lat": 25.9907088025753,
    "lon": -80.2047952356021
  },
  {
    "address_line1": "5801 SW 94TH ST",
    "city": "PINECREST",
    "state": "FL",
    "zip4": 2048,
    "lat": 25.68402603592274,
    "lon": -80.28682332683114
  },
  {
    "address_line1": "",
    "city": "INLET BEACH",
    "state": "FL",
    "zip4": "",
    "lat": 30.2851,
    "lon": -86.0298
  },
  {
    "address_line1": "568 SW 9TH ST",
    "city": "BELLE GLADE",
    "state": "FL",
    "zip4": 3790,
    "lat": 26.680447370317147,
    "lon": -80.67837868247106
  },
  {
    "address_line1": "9919 W OAKLAND PARK BLVD",
    "city": "SUNRISE",
    "state": "FL",
    "zip4": 7009,
    "lat": 26.170296693283014,
    "lon": -80.28300306309916
  },
  {
    "address_line1": "15350 N FLORIDA AVE",
    "city": "TAMPA",
    "state": "FL",
    "zip4": 1257,
    "lat": 28.090782973861714,
    "lon": -82.46032545026374
  },
  {
    "address_line1": "2814 18TH ST SW",
    "city": "LEHIGH ACRES",
    "state": "FL",
    "zip4": 3607,
    "lat": 26.597086273252195,
    "lon": -81.67116066115965
  },
  {
    "address_line1": "206 GREEN ACRES RD",
    "city": "FORT WALTON BEACH",
    "state": "FL",
    "zip4": 1154,
    "lat": 30.456270809940563,
    "lon": -86.6389075821394
  },
  {
    "address_line1": "3136 CALYPSO DR",
    "city": "AVON PARK",
    "state": "FL",
    "zip4": 2288,
    "lat": 27.63005097345411,
    "lon": -81.50403611533626
  },
  {
    "address_line1": "8831 IMMOKALEE RD",
    "city": "NAPLES",
    "state": "FL",
    "zip4": 3914,
    "lat": 26.274323367492613,
    "lon": -81.68854253495668
  },
  {
    "address_line1": "3084 BRANDON DUNES LN",
    "city": "LAUREL HILL",
    "state": "FL",
    "zip4": "",
    "lat": 30.866942989588637,
    "lon": -86.5293007696043
  },
  {
    "address_line1": "11734 WHITE WILLOW LN",
    "city": "RIVERVIEW",
    "state": "FL",
    "zip4": 5538,
    "lat": 27.8557,
    "lon": -82.3092
  },
  {
    "address_line1": "1851 W HIALEAH DR",
    "city": "CITRUS SPRINGS",
    "state": "FL",
    "zip4": "",
    "lat": 28.957950615063673,
    "lon": -82.46610754936562
  },
  {
    "address_line1": "2 RAINBOW LN",
    "city": "PALM COAST",
    "state": "FL",
    "zip4": "",
    "lat": 29.51199716301582,
    "lon": -81.22385828972205
  },
  {
    "address_line1": "446 6TH AVE NW",
    "city": "RUSKIN",
    "state": "FL",
    "zip4": 8124,
    "lat": 27.7233,
    "lon": -82.4371
  },
  {
    "address_line1": "2090 US HIGHWAY 1 S",
    "city": "SAINT AUGUSTINE",
    "state": "FL",
    "zip4": 5761,
    "lat": 29.860979120253674,
    "lon": -81.32257765607064
  },
  {
    "address_line1": "13101 WILDFLOWER MEADOW DR",
    "city": "RIVERVIEW",
    "state": "FL",
    "zip4": 9905,
    "lat": 27.798,
    "lon": -82.2644
  }
]
